,City,Cloudiness,Country,Date,Humidity,Lat,Lng,Max Temp,Wind Speed
0,new norfolk,75.0,AU,1536886800.0,37.0,-42.78,147.06,66.2,13.87
1,albany,75.0,US,1536886440.0,78.0,42.65,-73.75,73.04,2.3
2,tateyama,75.0,JP,1536883200.0,94.0,36.66,137.31,71.6,3.36
3,lebu,20.0,ET,1536886800.0,93.0,8.96,38.73,55.4,6.93
4,vaini,12.0,IN,1536888141.0,87.0,15.34,74.49,59.53,1.63
5,constitucion,90.0,MX,1536885900.0,82.0,23.99,-104.67,64.4,4.7
6,uirauna,68.0,BR,1536888342.0,30.0,-6.52,-38.41,84.46,11.25
7,busselton,56.0,AU,1536888162.0,100.0,-33.64,115.35,57.28,24.34
8,calamar,36.0,CO,1536888342.0,88.0,1.96,-72.65,76.27,1.07
9,ushuaia,48.0,AR,1536887903.0,88.0,-54.81,-68.31,39.82,16.06
10,qaanaaq,0.0,GL,1536888343.0,100.0,77.48,-69.36,25.78,5.66
11,castro,0.0,CL,1536888172.0,100.0,-42.48,-73.76,43.42,3.42
12,cueto,75.0,CU,1536886200.0,83.0,20.65,-75.94,80.6,10.29
13,kavieng,12.0,PG,1536888345.0,100.0,-2.57,150.8,83.74,3.76
14,balabac,88.0,PH,1536888183.0,100.0,7.99,117.06,80.59,21.09
15,mataura,32.0,NZ,1536888199.0,62.0,-46.19,168.86,60.79,13.49
16,bonavista,0.0,CA,1536888346.0,96.0,48.65,-53.11,56.65,7.78
17,barrow,0.0,AR,1536888139.0,85.0,-38.31,-60.23,53.41,7.67
18,sola,75.0,NO,1536886200.0,66.0,58.89,5.65,55.4,10.29
19,bluff,0.0,AU,1536888143.0,52.0,-23.58,149.07,73.75,4.54
20,longyearbyen,75.0,NO,1536886200.0,80.0,78.22,15.63,33.8,4.7
21,siverskiy,20.0,RU,1536885000.0,87.0,59.35,30.08,51.8,11.18
22,punta arenas,0.0,CL,1536883200.0,81.0,-53.16,-70.91,44.6,27.51
24,chuy,76.0,UY,1536888349.0,95.0,-33.69,-53.46,57.91,10.47
25,mizdah,0.0,LY,1536888350.0,53.0,31.45,12.98,72.58,9.13
26,adrar,0.0,DZ,1536886800.0,29.0,27.87,-0.29,89.6,17.22
28,ucluelet,75.0,CA,1536886800.0,93.0,48.94,-125.55,55.4,4.7
29,hasaki,75.0,JP,1536885300.0,94.0,35.73,140.83,73.4,4.7
30,rikitea,12.0,PF,1536888141.0,99.0,-23.12,-134.97,74.47,13.49
31,emerald,0.0,AU,1536888352.0,53.0,-23.53,148.16,73.57,4.65
32,mahibadhoo,88.0,MV,1536888353.0,100.0,3.78,72.97,83.02,10.47
33,ostrovnoy,88.0,RU,1536888353.0,98.0,68.05,39.51,45.58,7.45
34,sao filipe,92.0,CV,1536888354.0,100.0,14.9,-24.5,76.9,5.32
35,margate,75.0,AU,1536886800.0,37.0,-43.03,147.26,66.2,13.87
36,isangel,48.0,VU,1536888354.0,100.0,-19.55,169.27,74.02,16.96
37,provideniya,90.0,RU,1536885000.0,87.0,64.42,-173.23,48.2,13.42
38,vostok,92.0,RU,1536888355.0,100.0,46.45,135.83,56.83,2.98
39,hermitage,1.0,US,1536886560.0,90.0,41.23,-80.45,75.2,4.7
40,tevaitoa,76.0,PF,1536888356.0,99.0,-16.78,-151.5,80.14,9.01
41,vestmannaeyjar,56.0,IS,1536888357.0,92.0,63.44,-20.27,46.57,8.68
42,mar del plata,80.0,AR,1536888338.0,45.0,-46.43,-67.52,59.8,22.44
43,katherine,0.0,AU,1536886800.0,40.0,-14.47,132.26,86.0,5.82
44,georgetown,40.0,GY,1536883200.0,100.0,6.8,-58.16,73.4,4.7
45,yumen,80.0,CN,1536888358.0,62.0,40.29,97.04,43.24,6.22
46,cherskiy,20.0,RU,1536888214.0,69.0,68.75,161.3,41.98,4.43
47,dikson,88.0,RU,1536888188.0,100.0,73.51,80.55,38.38,19.75
48,klaksvik,76.0,FO,1536886200.0,93.0,62.23,-6.59,44.6,3.36
50,aberystwyth,92.0,GB,1536888360.0,91.0,52.41,-4.08,55.48,10.8
51,praia,0.0,BR,1536883200.0,72.0,-20.25,-43.81,64.4,6.93
52,hermanus,32.0,ZA,1536888179.0,79.0,-34.42,19.24,51.97,8.23
53,puerto ayora,20.0,EC,1536888361.0,99.0,-0.74,-90.35,71.68,13.82
54,komsomolskiy,92.0,RU,1536888361.0,97.0,67.55,63.78,44.5,6.33
55,bredasdorp,48.0,ZA,1536883200.0,81.0,-34.53,20.04,50.0,4.7
56,airai,0.0,TL,1536888202.0,61.0,-8.93,125.41,72.85,2.19
57,butaritari,88.0,KI,1536888211.0,100.0,3.07,172.79,84.82,13.71
58,elmadag,40.0,TR,1536886200.0,76.0,39.92,33.23,55.4,1.12
60,sassandra,68.0,CI,1536888364.0,96.0,4.95,-6.09,75.19,7.0
61,san cristobal,75.0,EC,1536883200.0,67.0,-0.39,-78.55,57.2,10.29
62,saint anthony,1.0,US,1536886560.0,5.0,43.97,-111.68,68.0,8.05
63,fortuna,20.0,ES,1536886800.0,83.0,38.18,-1.13,73.4,1.12
64,nishihara,75.0,JP,1536885780.0,94.0,35.74,139.53,71.6,3.36
65,nikolskoye,20.0,RU,1536885000.0,87.0,59.7,30.79,51.8,11.18
66,hilo,90.0,US,1536886380.0,74.0,19.71,-155.08,80.96,12.75
68,geraldton,40.0,CA,1536886800.0,77.0,49.72,-86.95,64.4,11.41
69,hobart,75.0,AU,1536886800.0,37.0,-42.88,147.33,66.2,13.87
70,saldanha,0.0,PT,1536888367.0,79.0,41.42,-6.55,57.64,2.75
71,esperance,20.0,TT,1536886800.0,83.0,10.24,-61.45,80.6,3.36
72,ayr,75.0,GB,1536886200.0,82.0,55.46,-4.63,55.4,13.87
73,san patricio,92.0,PY,1536888369.0,100.0,-26.98,-56.83,63.67,5.77
74,alice springs,0.0,AU,1536886800.0,8.0,-23.7,133.88,87.8,17.22
75,ponta do sol,44.0,BR,1536888369.0,96.0,-20.63,-46.0,59.62,3.76
76,santiago,0.0,CL,1536886800.0,66.0,-33.44,-70.65,53.6,8.05
77,bowen,0.0,AU,1536883200.0,50.0,-20.01,148.25,77.0,14.99
78,marienburg,20.0,DE,1536886200.0,93.0,52.12,9.98,48.2,1.12
79,barraute,5.0,CA,1536886800.0,87.0,48.43,-77.63,60.8,4.7
80,newport,90.0,GB,1536886200.0,100.0,51.59,-3.0,53.6,4.7
81,iqaluit,20.0,CA,1536886800.0,97.0,63.75,-68.52,32.0,6.93
83,jamestown,0.0,AU,1536887955.0,33.0,-33.21,138.6,65.38,15.73
84,tiksi,0.0,RU,1536888181.0,94.0,71.64,128.87,36.4,2.86
85,severo-kurilsk,0.0,RU,1536888141.0,88.0,50.68,156.12,54.22,4.21
86,kaeo,12.0,NZ,1536888374.0,71.0,-35.1,173.78,59.71,7.34
88,san vicente,0.0,SV,1536886200.0,88.0,13.64,-88.78,82.4,2.24
90,pascagoula,1.0,US,1536886560.0,87.0,30.37,-88.56,82.94,2.86
91,khatanga,56.0,RU,1536888166.0,96.0,71.98,102.47,38.29,11.92
92,kandrian,92.0,PG,1536888377.0,100.0,-6.21,149.55,72.04,1.74
93,donskoye,0.0,RU,1536885000.0,62.0,45.45,41.98,57.2,8.95
94,choya,8.0,RU,1536888378.0,88.0,52.01,86.55,29.74,3.2
95,tuatapere,0.0,NZ,1536888378.0,79.0,-46.13,167.69,55.3,16.51
96,saint george,20.0,GR,1536886200.0,68.0,39.45,22.34,64.4,5.82
97,beeville,1.0,US,1536886500.0,79.0,28.4,-97.75,81.5,9.17
99,fairbanks,75.0,US,1536886380.0,49.0,64.84,-147.72,62.06,3.36
100,yuncheng,44.0,CN,1536888380.0,92.0,35.03,111.0,61.15,3.65
101,montepuez,0.0,MZ,1536888380.0,88.0,-13.13,39.0,65.38,6.11
102,miramar,40.0,CR,1536886800.0,88.0,10.09,-84.73,71.6,4.7
104,shalinskoye,92.0,RU,1536888382.0,96.0,55.72,93.76,43.87,12.71
105,husavik,76.0,CA,1536888382.0,90.0,50.56,-96.99,61.51,8.68
106,hue,40.0,VN,1536886800.0,83.0,16.47,107.58,82.4,2.24
107,hearst,0.0,CA,1536888383.0,49.0,49.69,-83.67,72.94,9.24
108,atuona,0.0,PF,1536888197.0,98.0,-9.8,-139.03,80.05,17.29
109,hamilton,20.0,CA,1536886800.0,88.0,43.26,-79.87,71.6,10.29
110,tuktoyaktuk,75.0,CA,1536886800.0,79.0,69.44,-133.03,28.4,12.75
111,quibor,20.0,VE,1536883200.0,65.0,9.93,-69.62,78.8,6.93
112,kattivakkam,75.0,IN,1536886800.0,83.0,13.22,80.32,78.8,6.93
113,aguimes,0.0,ES,1536886800.0,61.0,27.91,-15.45,78.8,10.29
114,zhigansk,64.0,RU,1536888387.0,94.0,66.77,123.37,36.94,3.2
115,carnarvon,0.0,ZA,1536888160.0,75.0,-30.97,22.13,31.36,4.54
116,leningradskiy,88.0,RU,1536888387.0,88.0,69.38,178.42,44.68,9.69
117,batemans bay,0.0,AU,1536888388.0,76.0,-35.71,150.18,61.24,3.98
118,spearfish,1.0,US,1536886500.0,59.0,44.49,-103.86,68.0,5.82
119,dongsheng,20.0,CN,1536888389.0,76.0,29.72,112.52,77.17,5.99
120,kapaa,90.0,US,1536886560.0,90.0,22.08,-159.32,84.92,14.99
122,zhangye,92.0,CN,1536888306.0,99.0,38.94,100.46,41.08,4.32
124,atasu,0.0,KZ,1536888391.0,74.0,48.68,71.64,34.6,2.53
125,mamakan,88.0,RU,1536888391.0,97.0,57.82,114.02,34.69,2.86
126,yatou,75.0,CM,1536886800.0,100.0,3.63,9.81,75.2,3.36
127,kutum,68.0,SD,1536888392.0,89.0,14.2,24.66,66.01,5.32
128,tabat,0.0,ID,1536888392.0,78.0,-2.64,115.23,75.37,2.75
129,point fortin,20.0,TT,1536886800.0,83.0,10.16,-61.68,80.6,3.36
130,sungaipenuh,80.0,ID,1536888393.0,97.0,-2.08,101.38,65.2,1.07
131,kodiak,75.0,US,1536886380.0,81.0,39.95,-94.76,75.02,8.05
132,cape town,75.0,ZA,1536883200.0,87.0,-33.93,18.42,55.4,11.41
133,ust-kuyga,0.0,RU,1536888395.0,76.0,70.0,135.55,38.2,4.32
134,tefe,32.0,BR,1536888395.0,91.0,-3.35,-64.71,77.8,5.66
135,port hardy,75.0,CA,1536886800.0,67.0,50.7,-127.42,59.0,2.75
136,medea,40.0,DZ,1536886800.0,94.0,36.27,2.77,71.6,2.24
137,kolomna,0.0,RU,1536885000.0,87.0,55.09,38.77,44.6,2.24
138,rawson,0.0,AR,1536888397.0,43.0,-43.3,-65.11,51.25,3.2
139,hithadhoo,80.0,MV,1536888176.0,99.0,-0.6,73.08,84.28,16.84
140,norman wells,75.0,CA,1536886800.0,39.0,65.28,-126.83,46.4,13.87
141,juquitiba,75.0,BR,1536886800.0,82.0,-23.93,-47.07,62.6,12.75
143,yerbogachen,76.0,RU,1536888398.0,83.0,61.28,108.01,34.06,2.64
145,cayenne,0.0,GF,1536885000.0,94.0,4.94,-52.33,78.8,1.12
146,hirara,40.0,JP,1536883200.0,79.0,24.8,125.28,86.0,17.22
147,victoria,75.0,BN,1536886800.0,79.0,5.28,115.24,84.2,3.36
148,kenora,90.0,CA,1536886800.0,93.0,49.76,-94.48,64.4,5.82
149,tasiilaq,92.0,GL,1536886200.0,86.0,65.61,-37.64,39.2,6.93
150,saint paul,75.0,US,1536886500.0,64.0,44.95,-93.1,80.6,9.17
151,gorontalo,8.0,ID,1536888400.0,64.0,0.54,123.06,80.68,6.78
152,huadian,32.0,CN,1536888401.0,83.0,42.97,126.75,67.18,3.53
153,saint-philippe,1.0,CA,1536886800.0,82.0,45.36,-73.48,68.0,3.65
154,laguna,5.0,MX,1536886020.0,49.0,27.52,-110.01,93.2,8.05
157,wajir,8.0,KE,1536888402.0,69.0,1.75,40.07,76.18,12.26
158,omboue,92.0,GA,1536888403.0,100.0,-1.57,9.26,76.18,8.46
159,nanortalik,92.0,GL,1536888175.0,98.0,60.14,-45.24,38.65,2.3
160,bambous virieux,20.0,MU,1536886800.0,77.0,-20.34,57.76,69.8,8.05
161,mahebourg,20.0,MU,1536886800.0,77.0,-20.41,57.7,69.8,8.05
162,port alfred,0.0,ZA,1536888212.0,91.0,-33.59,26.89,61.87,12.59
164,caravelas,0.0,BR,1536888192.0,100.0,-17.73,-39.27,73.84,14.72
165,axim,92.0,GH,1536888303.0,98.0,4.87,-2.24,77.26,10.13
166,faanui,0.0,PF,1536888406.0,100.0,-16.48,-151.75,80.05,9.8
167,port elizabeth,90.0,US,1536886500.0,96.0,39.31,-74.98,73.94,12.75
169,evensk,0.0,RU,1536888407.0,99.0,61.92,159.24,49.09,8.46
171,fare,76.0,PF,1536888408.0,99.0,-16.7,-151.02,80.14,9.01
172,paarl,75.0,ZA,1536886800.0,82.0,-33.74,18.98,57.2,13.87
173,ternate,90.0,PH,1536883200.0,100.0,14.29,120.72,82.4,5.82
174,auka,20.0,HN,1536883200.0,74.0,14.93,-83.83,84.2,4.43
175,khasan,20.0,RU,1536888409.0,99.0,42.43,130.64,66.1,3.2
176,jaen,0.0,PE,1536888302.0,79.0,-5.71,-78.81,65.74,1.52
177,pervomayskoye,88.0,RU,1536888410.0,86.0,57.07,86.23,49.81,15.73
178,arraial do cabo,20.0,BR,1536883200.0,68.0,-22.97,-42.02,69.8,16.11
179,liseleje,36.0,DK,1536886200.0,93.0,56.01,11.96,55.4,5.82
180,torbay,90.0,CA,1536886800.0,100.0,47.66,-52.73,53.6,3.36
182,kilmallock,75.0,IE,1536886800.0,87.0,52.4,-8.57,55.4,8.05
184,maningrida,0.0,AU,1536888413.0,71.0,-12.05,134.23,80.05,8.57
185,matagami,48.0,NG,1536888414.0,92.0,9.67,8.4,63.04,2.75
186,alta floresta,20.0,BR,1536888188.0,94.0,-9.87,-56.08,74.74,2.42
187,kaitangata,0.0,NZ,1536888415.0,62.0,-46.28,169.85,58.81,19.08
190,chapada dos guimaraes,0.0,BR,1536883200.0,37.0,-15.46,-55.75,86.0,5.82
191,sitka,0.0,US,1536888416.0,46.0,37.17,-99.65,87.07,17.29
192,lashio,88.0,MM,1536888416.0,98.0,22.93,97.75,69.88,1.41
193,santa helena de goias,56.0,BR,1536888190.0,32.0,-17.81,-50.6,82.66,8.01
194,umm bab,32.0,QA,1536888417.0,80.0,25.21,50.81,81.04,2.75
195,lavrentiya,68.0,RU,1536888418.0,100.0,65.58,-170.99,48.1,13.27
196,ulladulla,0.0,AU,1536883200.0,55.0,-35.36,150.48,66.2,10.29
197,puerto del rosario,0.0,ES,1536886800.0,83.0,28.5,-13.86,75.2,8.05
198,antalaha,48.0,MG,1536888419.0,90.0,-14.9,50.28,68.44,8.46
199,thompson,90.0,CA,1536886800.0,87.0,55.74,-97.86,51.8,4.65
200,hovd,75.0,NO,1536886200.0,81.0,63.83,10.7,48.2,6.93
201,yellowknife,75.0,CA,1536887340.0,55.0,62.45,-114.38,35.6,11.41
202,dukat,0.0,RS,1536888421.0,84.0,42.44,22.31,52.06,2.42
203,dingle,92.0,PH,1536888421.0,98.0,11.0,122.67,75.91,14.16
204,gandajika,88.0,CD,1536888421.0,99.0,-6.75,23.95,66.1,8.46
205,wairoa,0.0,NZ,1536888422.0,88.0,-39.04,177.43,58.99,2.64
206,luderitz,0.0,NA,1536888422.0,89.0,-26.65,15.16,51.52,15.17
207,omsukchan,0.0,RU,1536888180.0,60.0,62.53,155.8,38.11,5.55
208,taoudenni,0.0,ML,1536888423.0,27.0,22.68,-3.98,80.95,7.45
209,torres,88.0,BR,1536888424.0,96.0,-29.34,-49.73,62.86,9.24
210,savannah bight,0.0,HN,1536888424.0,97.0,16.45,-85.85,84.19,20.98
211,high prairie,36.0,CA,1536888425.0,64.0,55.43,-116.48,36.67,3.76
212,yar-sale,92.0,RU,1536888425.0,100.0,66.83,70.83,48.28,12.82
213,sur,0.0,OM,1536888426.0,97.0,22.57,59.53,81.49,0.96
214,ancud,24.0,CL,1536888426.0,89.0,-41.87,-73.83,45.85,4.21
215,griffin,90.0,US,1536886980.0,84.0,33.25,-84.26,82.04,13.87
216,shache,92.0,CN,1536888427.0,49.0,38.42,77.24,57.73,7.9
217,narasannapeta,12.0,IN,1536888427.0,100.0,18.42,84.04,72.58,2.3
218,east london,0.0,ZA,1536888428.0,100.0,-33.02,27.91,64.75,13.82
219,cabo san lucas,75.0,MX,1536885900.0,74.0,22.89,-109.91,86.0,5.82
220,beringovskiy,92.0,RU,1536888428.0,99.0,63.05,179.32,51.25,17.52
221,port augusta,0.0,AU,1536886800.0,19.0,-32.49,137.76,75.2,25.28
222,benguela,12.0,AO,1536888429.0,100.0,-12.58,13.4,66.28,3.53
223,high level,20.0,CA,1536886800.0,48.0,58.52,-117.13,42.8,3.36
225,port lincoln,0.0,AU,1536888430.0,78.0,-34.72,135.86,61.6,15.73
227,avarua,90.0,CK,1536886800.0,64.0,-21.21,-159.78,73.4,6.93
228,kuito,0.0,AO,1536888431.0,60.0,-12.38,16.94,50.98,3.65
229,yulara,0.0,AU,1536886800.0,11.0,-25.24,130.99,82.4,11.41
230,tupik,20.0,RU,1536888431.0,93.0,54.43,119.94,43.42,3.42
231,lasa,40.0,CY,1536886800.0,73.0,34.92,32.53,73.4,6.93
232,manhattan,1.0,US,1536886320.0,81.0,39.18,-96.57,77.0,10.29
234,guerrero negro,0.0,MX,1536888168.0,66.0,27.97,-114.04,78.97,11.81
235,annau,20.0,TM,1536883200.0,53.0,37.89,58.52,71.6,6.93
236,chokurdakh,88.0,RU,1536888180.0,98.0,70.62,147.9,37.75,14.5
237,tamandare,56.0,BR,1536888433.0,61.0,-8.28,-70.75,88.42,1.97
238,hailar,12.0,CN,1536888433.0,71.0,49.2,119.7,51.79,9.24
239,tagusao,92.0,PH,1536888434.0,100.0,9.19,117.81,74.74,13.71
240,manaure,32.0,CO,1536888434.0,97.0,11.78,-72.45,82.75,21.77
242,la paz,40.0,MX,1536882720.0,41.0,24.15,-110.32,93.2,9.17
243,anahuac,40.0,US,1536887700.0,78.0,29.77,-94.68,82.4,23.04
244,liwonde,0.0,MW,1536888436.0,81.0,-15.05,35.2,64.57,4.54
245,ormara,92.0,PK,1536888437.0,93.0,25.21,64.64,78.61,7.78
246,marigot,8.0,HT,1536888437.0,97.0,18.23,-72.32,82.75,3.65
247,sinnamary,80.0,GF,1536888437.0,95.0,5.38,-52.96,82.39,16.96
253,general roca,0.0,AR,1536886800.0,50.0,-39.03,-67.58,51.8,2.98
255,coban,48.0,GT,1536888440.0,91.0,15.48,-90.37,74.47,0.4
256,vila,40.0,IT,1536886200.0,93.0,45.18,8.4,64.4,3.36
257,tairua,0.0,NZ,1536888441.0,62.0,-37.02,175.85,60.34,9.01
258,saskylakh,0.0,RU,1536888186.0,83.0,71.97,114.09,33.52,4.99
259,egvekinot,92.0,RU,1536888174.0,100.0,66.32,-179.17,44.5,2.98
260,cururupu,0.0,BR,1536888442.0,72.0,-1.82,-44.87,79.78,11.48
261,sinjai,8.0,ID,1536888443.0,88.0,-5.12,120.25,75.37,4.21
262,flin flon,44.0,CA,1536888443.0,87.0,54.77,-101.88,47.65,8.57
263,mae hong son,40.0,MM,1536886800.0,94.0,19.3,97.96,75.2,1.97
264,rosarito,40.0,CO,1536886800.0,100.0,4.91,-75.23,73.4,4.7
265,omaruru,0.0,NA,1536888444.0,78.0,-21.42,15.95,48.46,2.75
266,mangulile,32.0,HN,1536888445.0,68.0,15.04,-86.82,75.37,1.97
267,kloulklubed,75.0,PW,1536886200.0,70.0,7.04,134.26,86.0,8.05
268,black river,20.0,JM,1536886800.0,78.0,18.03,-77.85,82.4,4.7
269,sitangkai,44.0,PH,1536888446.0,100.0,4.66,119.39,83.38,17.63
270,upernavik,12.0,GL,1536888447.0,100.0,72.79,-56.15,35.95,4.43
271,jaypur,24.0,IN,1536888447.0,94.0,23.05,87.44,77.35,2.98
272,goundi,24.0,TD,1536888451.0,94.0,9.36,17.37,72.13,3.42
273,mayo,75.0,CA,1536886800.0,40.0,63.59,-135.9,51.8,9.17
275,gobabis,0.0,NA,1536888452.0,46.0,-22.45,18.97,50.98,2.98
276,nokha,0.0,IN,1536888452.0,64.0,27.56,73.47,79.87,10.92
278,churapcha,92.0,RU,1536888453.0,74.0,62.0,132.43,40.81,5.44
279,safford,1.0,US,1536886260.0,1.0,32.83,-109.71,96.08,10.29
280,grindavik,0.0,IS,1536885000.0,80.0,63.84,-22.43,41.0,13.87
281,concordia,48.0,AR,1536888454.0,77.0,-31.4,-58.02,65.74,12.71
282,qiongshan,20.0,CN,1536883200.0,94.0,20.01,110.35,82.4,8.95
284,eyl,0.0,SO,1536888456.0,91.0,7.98,49.82,75.01,20.98
285,itarema,0.0,BR,1536888456.0,72.0,-2.92,-39.92,77.53,16.28
286,ryotsu,75.0,JP,1536883200.0,88.0,38.08,138.43,73.4,1.12
288,huron,75.0,US,1536886500.0,62.0,44.36,-98.21,80.06,9.17
289,cockburn town,80.0,TC,1536888458.0,96.0,21.46,-71.14,84.1,17.07
290,linxia,92.0,CN,1536888458.0,95.0,35.6,103.21,44.41,3.65
292,bathsheba,20.0,BB,1536886800.0,83.0,13.22,-59.52,80.6,20.8
293,yaita,75.0,JP,1536886140.0,88.0,36.8,139.92,71.6,8.05
294,zheleznodorozhnyy,0.0,RU,1536885000.0,87.0,55.75,38.0,48.2,2.24
295,tarko-sale,92.0,RU,1536888460.0,97.0,64.92,77.78,44.95,19.08
296,ocos,75.0,GT,1536885660.0,88.0,14.51,-92.19,78.8,3.36
297,henties bay,0.0,NA,1536888461.0,100.0,-22.12,14.28,52.87,5.32
298,dinghai,40.0,CN,1536883200.0,78.0,26.28,119.79,82.4,17.9
299,hangu,20.0,PK,1536886800.0,78.0,33.53,71.06,75.2,13.87
300,merauke,56.0,ID,1536888462.0,77.0,-8.49,140.4,82.3,16.73
302,port hedland,0.0,AU,1536886800.0,18.0,-20.31,118.58,87.8,10.29
303,sao jose da coroa grande,88.0,BR,1536888463.0,81.0,-8.9,-35.15,74.11,10.25
305,siocon,88.0,PH,1536888464.0,100.0,11.03,124.04,82.39,23.55
306,srandakan,92.0,ID,1536888464.0,94.0,-7.94,110.25,69.88,3.87
308,coquimbo,75.0,CL,1536883200.0,87.0,-29.95,-71.34,53.6,5.82
309,aldan,92.0,RU,1536888465.0,97.0,58.61,125.39,40.27,2.98
310,sorland,92.0,NO,1536888465.0,100.0,67.67,12.69,51.7,15.61
311,gat,36.0,SN,1536883200.0,94.0,14.69,-16.54,80.6,2.53
312,niquero,12.0,CU,1536888466.0,93.0,20.04,-77.58,84.1,4.43
313,broome,12.0,GB,1536886200.0,76.0,52.47,1.45,53.6,6.93
314,campeche,90.0,MX,1536887940.0,88.0,19.84,-90.54,77.0,11.41
315,forio,75.0,IT,1536886500.0,88.0,40.73,13.86,71.6,3.36
316,mount gambier,0.0,AU,1536888301.0,59.0,-37.83,140.78,62.5,10.58
317,minab,75.0,IR,1536883200.0,89.0,27.15,57.07,87.8,4.7
318,gravdal,92.0,NO,1536886200.0,66.0,59.79,5.78,55.4,21.92
320,poum,0.0,MK,1536888470.0,78.0,41.28,20.71,51.43,1.74
321,necochea,0.0,AR,1536888470.0,84.0,-38.55,-58.74,51.7,8.68
322,coahuayana,64.0,MX,1536888187.0,79.0,18.62,-100.35,77.08,2.42
323,hays,1.0,US,1536886560.0,64.0,38.88,-99.33,82.94,18.34
324,ler,75.0,NO,1536886200.0,81.0,63.2,10.3,48.2,6.93
325,ixtapa,90.0,MX,1536886080.0,89.0,20.71,-105.21,84.2,2.3
327,bodden town,20.0,KY,1536886800.0,88.0,19.28,-81.25,82.4,5.82
328,isabela,100.0,PH,1536888473.0,100.0,10.2,122.99,74.11,10.47
329,matehuala,24.0,MX,1536888473.0,75.0,23.65,-100.64,68.8,3.09
330,port macquarie,0.0,AU,1536886800.0,53.0,-31.43,152.91,75.2,9.17
331,port hawkesbury,1.0,CA,1536886800.0,100.0,45.62,-61.36,53.6,4.7
332,salalah,75.0,OM,1536882600.0,88.0,17.01,54.1,77.0,6.93
333,bosaso,92.0,SO,1536888475.0,98.0,11.28,49.18,85.18,5.66
334,haines junction,88.0,CA,1536888475.0,70.0,60.75,-137.51,45.31,4.65
335,ahipara,56.0,NZ,1536888476.0,89.0,-35.17,173.16,56.2,7.45
336,shenkursk,92.0,RU,1536888476.0,97.0,62.11,42.91,50.53,12.37
337,teya,75.0,MX,1536886260.0,78.0,21.05,-89.07,80.6,4.7
338,ribeira grande,88.0,PT,1536888477.0,100.0,38.52,-28.7,73.75,11.81
340,karratha,0.0,AU,1536888302.0,29.0,-20.74,116.85,72.67,3.65
341,srednekolymsk,80.0,RU,1536888478.0,87.0,67.46,153.71,37.12,4.21
342,tres arroyos,0.0,AR,1536888479.0,85.0,-38.38,-60.28,53.41,7.67
344,mosquera,75.0,CO,1536886800.0,87.0,4.71,-74.23,55.4,2.24
345,walvis bay,0.0,NA,1536888479.0,100.0,-22.95,14.51,56.11,9.46
346,santa isabel do rio negro,20.0,BR,1536888480.0,82.0,-0.41,-65.02,82.12,2.19
347,trinidad,8.0,UY,1536888480.0,67.0,-33.52,-56.9,62.05,11.03
348,hofn,88.0,IS,1536888481.0,100.0,64.25,-15.21,45.04,9.46
349,galich,0.0,RU,1536888481.0,66.0,58.38,42.35,51.79,12.93
350,kota belud,75.0,MY,1536886800.0,79.0,6.35,116.43,84.2,4.7
351,synya,92.0,RU,1536888482.0,99.0,65.37,58.04,48.01,5.44
352,curaca,76.0,BR,1536888482.0,42.0,-8.99,-39.91,79.78,14.72
353,aksha,92.0,RU,1536888483.0,100.0,50.28,113.29,35.77,11.92
354,marabba,20.0,SD,1536888483.0,86.0,12.35,32.18,74.2,2.86
355,capinopolis,8.0,BR,1536888484.0,59.0,-18.68,-49.57,73.21,3.42
356,qaqortoq,92.0,GL,1536886200.0,100.0,60.72,-46.03,41.0,4.7
357,natal,20.0,BR,1536886800.0,73.0,-5.81,-35.21,75.2,10.29
359,lompoc,1.0,US,1536886560.0,56.0,34.64,-120.46,73.94,14.99
360,lensk,92.0,RU,1536888485.0,100.0,60.71,114.91,37.12,4.09
361,byron bay,0.0,AU,1536886800.0,60.0,-28.65,153.62,73.4,12.75
362,pocao de pedras,12.0,BR,1536888486.0,59.0,-4.67,-44.85,81.04,2.64
364,ambilobe,0.0,MG,1536888487.0,75.0,-13.19,49.05,67.45,5.44
365,bomi,92.0,SL,1536888406.0,100.0,7.25,-11.53,71.14,0.85
366,ugoofaaru,64.0,MV,1536888488.0,100.0,5.67,73.0,83.38,10.47
367,anadyr,90.0,RU,1536885000.0,93.0,64.73,177.51,53.6,17.9
368,san pablo,90.0,PH,1536883200.0,100.0,14.07,121.33,82.4,5.82
369,los llanos de aridane,12.0,ES,1536886800.0,83.0,28.66,-17.92,75.2,6.93
371,namibe,76.0,AO,1536888204.0,100.0,-15.19,12.15,64.84,2.08
372,diamantino,12.0,BR,1536888491.0,69.0,-14.4,-56.44,77.08,2.75
373,otane,0.0,NZ,1536888492.0,68.0,-39.89,176.62,60.34,7.23
374,goderich,56.0,CA,1536888492.0,77.0,43.74,-81.71,73.48,9.69
375,woodward,1.0,US,1536886500.0,57.0,36.43,-99.39,86.0,14.99
377,cedar rapids,1.0,US,1536887700.0,70.0,41.98,-91.67,73.94,5.82
378,smithers,40.0,CA,1536886800.0,23.0,54.78,-127.17,51.8,5.82
379,bilma,0.0,NE,1536888215.0,35.0,18.69,12.92,72.31,3.53
380,cidreira,56.0,BR,1536888494.0,85.0,-30.17,-50.22,64.48,12.37
381,pagudpud,75.0,PH,1536883200.0,83.0,18.56,120.79,84.2,6.67
382,codrington,0.0,AU,1536888495.0,80.0,-28.95,153.24,69.88,3.53
383,wabana,90.0,CA,1536886800.0,100.0,47.63,-52.95,53.6,3.36
384,corinto,80.0,BR,1536888495.0,88.0,-18.36,-44.46,66.19,4.21
385,camenca,68.0,MD,1536888496.0,86.0,47.82,27.37,57.64,2.75
386,ust-ishim,92.0,RU,1536888496.0,97.0,57.69,71.17,54.76,13.94
387,tura,100.0,IN,1536888497.0,97.0,25.52,90.21,74.11,3.42
388,epe,0.0,DE,1536886200.0,87.0,52.18,7.04,46.4,3.36
389,toamasina,75.0,MG,1536886800.0,93.0,-18.17,49.38,66.2,2.42
390,bangkal,75.0,PH,1536883200.0,70.0,7.07,125.56,84.2,14.99
391,saint-augustin,20.0,FR,1536886800.0,93.0,44.83,-0.61,60.8,3.36
392,soyo,76.0,AO,1536888183.0,93.0,-6.13,12.37,70.78,3.65
393,wattegama,48.0,LK,1536888499.0,98.0,7.35,80.68,66.73,3.76
394,markova,20.0,RU,1536885000.0,93.0,52.21,104.21,35.6,4.47
396,samborondon,0.0,EC,1536886800.0,69.0,-2.27,-79.59,75.2,16.11
397,almaznyy,0.0,RU,1536888501.0,62.0,48.03,40.04,53.68,4.76
398,souillac,0.0,FR,1536886800.0,88.0,45.6,-0.6,62.6,4.7
399,bethel,1.0,US,1536886380.0,58.0,60.79,-161.76,64.94,3.36
401,saint-francois,0.0,FR,1536886800.0,87.0,46.42,3.91,59.0,3.36
402,nordfjordeid,92.0,NO,1536886200.0,76.0,61.91,5.99,53.6,20.8
403,lagoa,0.0,PT,1536886800.0,83.0,37.14,-8.45,69.8,3.36
404,conde,92.0,BR,1536888194.0,82.0,-11.81,-37.61,75.37,11.03
405,ilulissat,0.0,GL,1536886200.0,80.0,69.22,-51.1,30.2,2.42
406,galveston,1.0,US,1536887700.0,73.0,40.58,-86.19,73.94,4.7
407,belmonte,0.0,PT,1536888505.0,76.0,40.36,-7.35,62.14,3.2
409,atar,8.0,MR,1536888506.0,76.0,20.52,-13.05,75.37,1.63
410,half moon bay,1.0,US,1536886800.0,82.0,37.46,-122.43,69.08,11.41
412,nome,40.0,US,1536886500.0,83.0,30.04,-94.42,80.06,4.7
413,marfino,0.0,RU,1536885000.0,93.0,56.07,37.56,48.2,4.47
414,ullapool,92.0,GB,1536888508.0,100.0,57.9,-5.16,51.7,20.2
415,agirish,48.0,RU,1536888508.0,96.0,61.92,63.02,48.28,9.46
416,feijo,75.0,EC,1536886800.0,33.0,-3.63,-79.92,89.6,4.7
417,kokstad,12.0,ZA,1536888509.0,59.0,-30.55,29.42,42.43,2.75
418,ust-nera,32.0,RU,1536888510.0,72.0,64.57,143.24,33.52,2.64
419,chicama,90.0,PE,1536886800.0,88.0,-7.84,-79.15,62.6,9.17
420,gigmoto,100.0,PH,1536888511.0,100.0,13.78,124.39,76.45,27.58
421,frontera,90.0,MX,1536885720.0,100.0,18.53,-92.64,71.6,8.01
422,salinopolis,0.0,BR,1536888512.0,93.0,-0.61,-47.36,81.58,21.77
423,harper,1.0,US,1536886500.0,61.0,30.3,-99.24,82.04,8.23
424,la ronge,90.0,CA,1536886800.0,93.0,55.1,-105.3,37.4,8.05
425,wanaka,0.0,NZ,1536888513.0,50.0,-44.7,169.14,57.82,2.98
426,meulaboh,24.0,ID,1536888514.0,100.0,4.14,96.13,78.07,3.42
427,methala,40.0,IN,1536886800.0,78.0,10.22,76.22,75.2,1.86
428,phuket,40.0,TH,1536886800.0,78.0,7.89,98.4,82.4,10.29
429,lappeenranta,0.0,FI,1536886200.0,100.0,61.06,28.19,44.6,4.7
430,sabha,0.0,LY,1536888515.0,40.0,27.03,14.43,75.28,9.8
431,san carlos de bariloche,0.0,AR,1536886800.0,69.0,-41.13,-71.31,39.2,3.36
432,narsaq,92.0,GL,1536886200.0,78.0,60.91,-46.05,41.0,4.7
433,les cayes,0.0,HT,1536888517.0,98.0,18.19,-73.75,83.11,5.55
435,pevek,80.0,RU,1536888213.0,87.0,69.7,170.27,48.55,5.44
436,oum hadjer,48.0,TD,1536888518.0,81.0,13.3,19.7,75.82,6.67
437,nouadhibou,12.0,MR,1536886800.0,66.0,20.93,-17.03,84.2,8.05
438,shellbrook,90.0,CA,1536887460.0,93.0,53.22,-106.39,44.6,4.7
439,maldonado,75.0,UY,1536883200.0,93.0,-34.91,-54.96,59.0,9.17
440,kyzyl-suu,0.0,KG,1536888520.0,100.0,42.34,78.0,42.97,8.23
441,malanje,48.0,AO,1536888520.0,99.0,-9.54,16.35,63.4,3.09
442,baykit,88.0,RU,1536888520.0,94.0,61.68,96.39,30.55,2.86
443,ulundi,48.0,ZA,1536888521.0,75.0,-28.29,31.43,48.82,0.96
444,southampton,0.0,GB,1536882600.0,87.0,50.9,-1.4,50.0,2.24
445,kletskaya,0.0,RU,1536888522.0,72.0,49.31,43.06,52.42,2.53
446,jurm,32.0,AF,1536888522.0,97.0,36.86,70.83,33.7,0.63
447,sladkovo,64.0,RU,1536888523.0,47.0,55.53,70.34,62.23,21.54
448,marstal,24.0,DK,1536886200.0,82.0,54.86,10.52,55.4,3.36
449,onverwacht,0.0,SR,1536886800.0,88.0,5.59,-55.2,84.2,2.24
450,usinsk,92.0,RU,1536888523.0,97.0,66.0,57.56,47.29,6.67
451,cap-aux-meules,5.0,CA,1536886800.0,93.0,47.38,-61.86,59.0,4.7
452,tokur,92.0,RU,1536888524.0,100.0,53.13,132.9,44.95,2.98
453,dunedin,0.0,NZ,1536888066.0,72.0,-45.87,170.5,59.35,2.75
454,siguiri,20.0,GN,1536888525.0,95.0,11.42,-9.17,70.33,6.78
455,snezhnogorsk,75.0,RU,1536885000.0,93.0,69.19,33.23,46.4,2.53
456,taksimo,92.0,RU,1536888525.0,92.0,56.36,114.84,35.68,2.53
457,pucara,90.0,BO,1536886800.0,82.0,-21.7,-64.2,57.2,2.42
458,touros,8.0,BR,1536888383.0,81.0,-5.2,-35.46,75.82,20.54
460,kahului,40.0,US,1536886560.0,69.0,20.89,-156.47,84.92,20.8
461,jalu,0.0,LY,1536888527.0,47.0,29.03,21.55,70.24,4.21
462,shingu,75.0,JP,1536883200.0,83.0,33.72,135.99,77.0,2.24
463,pozo colorado,48.0,PY,1536888528.0,69.0,-23.49,-58.8,73.3,11.25
464,karak,0.0,JO,1536883200.0,72.0,31.18,35.7,68.0,9.17
465,sao joao da barra,20.0,BR,1536888528.0,99.0,-21.64,-41.05,72.49,18.07
466,ponta delgada,20.0,PT,1536886800.0,78.0,37.73,-25.67,71.6,4.7
468,mount isa,0.0,AU,1536886800.0,23.0,-20.73,139.49,84.2,13.87
469,sayat,0.0,TM,1536883200.0,46.0,38.78,63.88,53.6,4.7
470,inta,88.0,RU,1536888530.0,98.0,66.04,60.13,48.28,4.88
471,rocha,88.0,UY,1536888531.0,92.0,-34.48,-54.34,57.82,8.23
472,montmagny,0.0,FR,1536886800.0,76.0,48.97,2.34,59.0,9.17
473,esmeraldas,0.0,BR,1536886800.0,67.0,-19.76,-44.31,64.4,6.93
475,bauchi,68.0,NG,1536888533.0,95.0,10.31,9.85,66.91,5.21
476,eureka,1.0,US,1536886500.0,72.0,40.8,-124.16,62.6,8.05
477,vila franca do campo,20.0,PT,1536886800.0,78.0,37.72,-25.43,71.6,4.7
478,college,75.0,US,1536886380.0,49.0,64.86,-147.8,62.06,3.36
479,progreso,90.0,UY,1536883200.0,100.0,-34.68,-56.22,55.4,12.75
481,wanning,75.0,AT,1536886200.0,88.0,48.64,13.53,64.4,2.24
482,elmira,90.0,US,1536886560.0,90.0,42.09,-76.81,71.96,6.93
483,ottawa,5.0,CA,1536886800.0,77.0,45.42,-75.69,68.0,5.82
484,kupang,20.0,ID,1536885000.0,48.0,-10.16,123.6,86.0,16.11
485,barra do garcas,0.0,BR,1536886800.0,74.0,-15.89,-52.26,78.8,4.7
486,aklavik,40.0,CA,1536886800.0,69.0,68.22,-135.01,33.8,10.29
487,najran,0.0,SA,1536883200.0,27.0,17.54,44.22,77.0,4.7
488,rapid valley,1.0,US,1536886500.0,58.0,44.06,-103.15,68.0,8.05
489,labuhan,0.0,ID,1536888184.0,80.0,-2.54,115.51,74.47,3.2
490,krasnoarmeysk,0.0,RU,1536885000.0,93.0,56.12,38.15,46.4,4.47
491,oktyabrskoye,68.0,RU,1536888539.0,77.0,56.73,85.44,51.07,10.13
492,vao,68.0,EE,1536888178.0,81.0,59.1,26.19,51.88,7.45
493,myitkyina,80.0,MM,1536888540.0,98.0,25.38,97.4,72.58,2.08
494,todos santos,75.0,MX,1536885900.0,74.0,23.45,-110.23,93.2,5.82
495,viedma,0.0,AR,1536888541.0,36.0,-40.81,-62.99,55.84,8.79
496,bubaque,20.0,GW,1536883200.0,88.0,11.28,-15.83,78.8,4.7
497,mathathane,0.0,BW,1536888542.0,55.0,-22.27,28.75,55.66,2.75
498,salekhard,88.0,RU,1536888542.0,96.0,66.54,66.62,44.23,7.67
500,alihe,0.0,CN,1536888543.0,74.0,50.57,123.73,54.49,3.53
501,concarneau,0.0,FR,1536886800.0,93.0,47.88,-3.92,50.0,4.7
502,oriximina,24.0,BR,1536888544.0,62.0,-1.77,-55.87,85.9,6.11
503,gijon,75.0,ES,1536886800.0,93.0,43.54,-5.66,66.2,3.36
504,sistranda,20.0,NO,1536886200.0,81.0,63.73,8.83,46.4,9.17
505,severo-yeniseyskiy,8.0,RU,1536888545.0,89.0,60.37,93.04,30.1,2.42
506,kuytun,92.0,RU,1536888546.0,81.0,54.34,101.51,37.66,4.76
507,miri,68.0,NG,1536888546.0,95.0,10.31,9.75,66.91,5.21
508,okhotsk,0.0,RU,1536888211.0,89.0,59.36,143.24,50.35,4.32
509,gimbi,36.0,ET,1536888547.0,90.0,8.81,37.79,47.47,2.64
510,champerico,75.0,MX,1536885780.0,83.0,16.38,-93.6,78.8,10.29
512,wageningen,75.0,NL,1536886500.0,100.0,51.98,5.66,44.6,1.12
513,fasa,0.0,IR,1536883200.0,18.0,28.94,53.65,73.4,4.7
514,havre-saint-pierre,90.0,CA,1536886800.0,82.0,50.23,-63.6,59.0,5.82
515,uchiza,0.0,PE,1536888550.0,80.0,-8.46,-76.46,75.55,0.74
516,bainbridge,40.0,US,1536887700.0,88.0,30.9,-84.58,82.4,5.82
517,santa marta,75.0,CO,1536886800.0,94.0,11.24,-74.21,78.8,6.93
518,bandarbeyla,20.0,SO,1536888552.0,83.0,9.49,50.81,73.03,25.68
519,corumba,40.0,BR,1536883200.0,45.0,-19.0,-57.65,87.8,9.17
520,antofagasta,90.0,CL,1536883200.0,62.0,-23.65,-70.4,57.2,9.17
522,diffa,12.0,NE,1536888553.0,72.0,13.32,12.61,76.54,2.86
525,hambantota,76.0,LK,1536888308.0,100.0,6.12,81.12,79.42,8.68
526,tilichiki,92.0,RU,1536888555.0,100.0,60.47,166.1,47.83,5.99
527,krasnovishersk,92.0,RU,1536888556.0,93.0,60.4,57.08,48.19,17.85
528,te anau,32.0,NZ,1536888556.0,78.0,-45.41,167.72,51.25,10.25
529,wagga wagga,0.0,AU,1536886800.0,48.0,-35.12,147.37,64.4,3.36
530,mareeba,40.0,AU,1536886800.0,45.0,-16.99,145.42,82.4,20.8
531,dicabisagan,92.0,PH,1536888557.0,100.0,17.08,122.42,77.44,13.49
532,roald,92.0,NO,1536886200.0,87.0,62.58,6.12,50.0,9.17
533,poya,76.0,NC,1536888558.0,100.0,-21.35,165.16,69.79,10.25
535,san-pedro,88.0,CI,1536888559.0,96.0,4.75,-6.64,73.93,5.66
536,khash,0.0,IR,1536888559.0,21.0,28.22,61.21,66.82,11.36
537,solnechnyy,68.0,RU,1536888560.0,86.0,50.72,136.64,54.4,4.43
538,pangkalanbuun,20.0,ID,1536888560.0,86.0,-2.68,111.62,76.9,4.99
539,nicoya,40.0,CR,1536886800.0,88.0,10.15,-85.45,78.8,3.36
540,caucaia,0.0,BR,1536886800.0,74.0,-3.73,-38.66,78.8,14.99
541,singapore,75.0,MY,1536886800.0,78.0,1.29,103.85,84.2,9.17
542,chuguyevka,0.0,RU,1536888561.0,87.0,44.17,133.87,64.57,3.42
543,kaseda,75.0,JP,1536886020.0,88.0,31.42,130.32,78.8,4.7
544,portland,75.0,US,1536886560.0,50.0,45.52,-122.67,68.0,9.17
545,buraydah,0.0,SA,1536883200.0,23.0,26.33,43.97,86.0,5.82
546,francisco sa,0.0,BR,1536883200.0,49.0,-16.48,-43.49,71.6,2.24
547,nemuro,75.0,JP,1536883200.0,93.0,43.32,145.57,66.2,9.17
549,tapikan,92.0,PH,1536888564.0,98.0,10.61,122.17,75.91,14.16
550,avera,1.0,US,1536887700.0,67.0,33.19,-82.53,84.02,4.7
552,turukhansk,0.0,RU,1536888205.0,82.0,65.8,87.96,31.9,14.27
553,paamiut,92.0,GL,1536888566.0,100.0,61.99,-49.67,39.01,8.68
554,eirunepe,32.0,BR,1536888566.0,68.0,-6.66,-69.87,82.21,4.43
555,orotukan,80.0,RU,1536888567.0,70.0,62.26,151.67,40.0,3.87
556,maxixe,0.0,MZ,1536888567.0,100.0,-23.86,35.35,68.35,12.48
557,chumikan,92.0,RU,1536888567.0,100.0,54.72,135.31,49.0,8.79
558,santa luzia,0.0,BR,1536886800.0,68.0,-19.77,-43.85,64.4,6.93
559,san jose,92.0,PH,1536888408.0,100.0,15.79,120.99,73.3,2.64
560,tukan,32.0,RU,1536888569.0,42.0,53.84,57.45,61.78,8.23
561,katsuura,75.0,JP,1536883980.0,88.0,33.93,134.5,77.0,3.36
563,homer,1.0,US,1536886380.0,77.0,59.64,-151.54,59.0,5.82
564,tomatlan,88.0,MX,1536888571.0,91.0,19.93,-105.25,78.07,3.42
565,alugan,92.0,PH,1536888572.0,100.0,12.22,125.48,79.06,24.9
566,acapulco,90.0,MX,1536885600.0,79.0,16.86,-99.88,84.2,4.7
567,kruisfontein,0.0,ZA,1536888186.0,95.0,-34.0,24.73,58.63,14.5
569,opuwo,0.0,NA,1536888574.0,70.0,-18.06,13.84,49.0,3.2
570,mpika,0.0,ZM,1536888574.0,63.0,-11.84,31.4,58.54,8.12
571,caltanissetta,68.0,IT,1536888574.0,91.0,37.49,14.06,68.98,4.09
572,kushima,75.0,JP,1536886020.0,88.0,31.5,131.29,78.8,4.7
573,ayase,75.0,JP,1536885780.0,94.0,35.45,139.43,71.6,3.36
574,talcahuano,0.0,CL,1536883200.0,81.0,-36.72,-73.12,51.8,16.11
575,udachnyy,0.0,RU,1536888576.0,85.0,66.42,112.4,31.9,3.09
576,mastic beach,75.0,US,1536886560.0,84.0,40.77,-72.85,71.96,3.36
577,yenagoa,32.0,NG,1536888577.0,97.0,4.92,6.26,73.48,3.98
578,kaohsiung,75.0,TW,1536885000.0,66.0,22.62,120.31,87.8,5.82
580,kavaratti,80.0,IN,1536888578.0,100.0,10.57,72.64,80.95,5.66
581,marion,1.0,US,1536887700.0,79.0,35.21,-90.2,82.94,4.43
582,richland,1.0,US,1536886380.0,27.0,46.28,-119.28,73.94,11.41
583,moron,40.0,VE,1536886800.0,83.0,10.49,-68.2,78.8,2.98
584,claremore,1.0,US,1536886500.0,73.0,36.31,-95.62,82.04,3.36
585,ust-ilimsk,92.0,RU,1536888581.0,97.0,57.96,102.73,38.65,6.44
586,la libertad,0.0,PE,1536886800.0,25.0,-16.38,-71.56,51.8,3.36
587,malibu,90.0,US,1536886980.0,74.0,33.61,-84.48,82.04,4.7
588,fergus falls,90.0,US,1536887820.0,78.0,46.28,-96.08,77.0,12.75
589,pisco,0.0,PE,1536886800.0,82.0,-13.71,-76.2,60.8,12.75
591,san rafael,0.0,AR,1536888584.0,64.0,-34.61,-68.33,57.82,8.23
